name,cuisinetype,rankingPosition,priceLevel,category,rating,address,numberOfReviews,latitude,longitude,Postcode
1806,Bar,110,$$ - $$$,restaurant,4.5,"169 Exhibition St, Melbourne, Victoria 3000 Australia",259,-37.811624,144.970126,3000
+39 Pizzeria,Italian,48,$$ - $$$,restaurant,4.5,"362 Little Bourke St, Melbourne, Victoria 3000 Australia",1232,-37.81342245,144.9618978,3000
11 Inch Pizza,Italian,4,$,restaurant,4.5,"Shop 7A 353 Little Collins St, Melbourne, Victoria 3000 Australia",324,-37.8157451,144.9630281,3000
1932 Cafe & Restaurant,Australian,50,$$ - $$$,restaurant,4.5,"220 Collins St Manchester Unity Building, Melbourne, Victoria 3000 Australia",443,-37.815378,144.966169,3000
3 Brothersss Indian Restaurant,Indian,228,$$ - $$$,restaurant,5,"513 Elizabeth St Queen Victoria Market, Melbourne, Victoria 3000 Australia",41,-37.8068913,144.9595173,3000
400 Gradi,Italian,1,$$ - $$$,restaurant,4,"99 Lygon St, Brunswick West, Moreland, Victoria 3057 Australia",773,-37.7724565,144.9715405,3057
A Hereford Beefstouw,Australian,139,$$ - $$$,restaurant,4.5,"22 Duckboard Pl, Melbourne, Victoria 3000 Australia",199,-37.8157916,144.9713041,3000
A25 Pizzeria CBD,Italian,363,$$ - $$$,restaurant,4.5,"Taylors College 399 Lonsdale St, Melbourne, Victoria 3000 Australia",77,-37.812967,144.960657,3000
Aagaman Indian Nepalese Restaurant,Indian,262,$$ - $$$,restaurant,4.5,"271 Bay St, Melbourne, Victoria 3207 Australia",132,-37.8425339,144.938633,3207
Abbey Road Cafe,Australian,10,$$ - $$$,restaurant,4,"129-131 Acland St, St Kilda, Port Phillip, Victoria 3182 Australia",805,-37.86859626,144.9796587,3182
Abla's,Lebanese,316,$$ - $$$,restaurant,4,"109 Elgin St, Melbourne, Victoria 3053 Australia",204,-37.7977244,144.9710727,3053
Afternoon Tea at The Hotel Windsor,Australian,41,$$$$,restaurant,4.5,"111 Spring Street The Hotel Windsor, Melbourne, Victoria 3000 Australia",1508,-37.8094185,144.9720826,3000
Aix Cafe,Cafe,358,$,restaurant,4.5,"24 Centre Pl, Melbourne, Victoria 3000 Australia",85,-37.816712,144.965643,3000
Amaru Melbourne Restaurant,Australian,1,$$$$,restaurant,4.5,"Shop 5 1121 High St, Armadale, Stonnington, Victoria 3143 Australia",118,-37.85589,145.024664,3143
American Doughnut Kitchen,American,374,$,restaurant,4.5,"Queen St, Melbourne, Victoria 3000 Australia",100,-37.8109965,144.958967,3000
Amiconi,Italian,71,$$ - $$$,restaurant,4.5,"359 Victoria St Locality is West Melbourne, Melbourne, Victoria 3003 Australia",181,-37.808537,144.920974,3003
Anada,Spanish,17,$$ - $$$,restaurant,4.5,"197 Gertrude St, Fitzroy, Yarra, Victoria 3065 Australia",219,-37.8060231,144.9811507,3065
Anchovy,Asian,11,$$ - $$$,restaurant,4.5,"338 Bridge Rd, Richmond, Yarra, Victoria 3121 Australia",93,-37.81903827,145.0025891,3121
Andrew's Hamburgers,American,249,$,restaurant,4.5,"144 Bridport St, Melbourne, Victoria 3206 Australia",169,-37.840618,144.9552957,3206
Angus & Bon,Australian,1,$$ - $$$,restaurant,4.5,"168 Greville Street, Prahran, Stonnington, Victoria 3181 Australia",168,-37.849527,144.992318,3181
Arbory Bar & Eatery,Australian,194,$$ - $$$,restaurant,4,"Flinders Walk, Melbourne, Victoria 3000 Australia",827,-37.8188703,144.9677921,3000
Archie's All Day,Cafe,18,$$ - $$$,restaurant,4.5,"189 Gertrude St, Fitzroy, Yarra, Victoria 3065 Australia",162,-37.805994,144.98093,3065
Asado,Argentinian,301,$$$$,restaurant,4,"6 Riverside Quay, Melbourne, Victoria 3006 Australia",211,-37.8209861,144.9639956,3006
At Ease - Easy Thai,Thai,437,$,restaurant,4.5,"195 Lonsdale St, Melbourne, Victoria 3000 Australia",75,-37.8112024,144.9666038,3000
Atrium Bar On 35,Australian,421,$$$$,restaurant,4.5,"25 Collins St, Melbourne, Victoria 3000 Australia",83,-37.74126605,144.802026,3000
Atta Restaurant,Indian,2,$$ - $$$,restaurant,4.5,"159-161 Victoria Ave Melbourne, Albert Park, Port Phillip, Victoria 3206 Australia",102,-37.8467275,144.9495317,3206
Attica,Australian,1,$$$$,restaurant,4.5,"74 Glen Eira Rd, Ripponlea, Port Phillip, Victoria 3185 Australia",626,-37.8769586,144.9973257,3185
Auction Rooms,Cafe,57,$$ - $$$,restaurant,4.5,"103-107 Errol St, Melbourne, Victoria 3051 Australia",432,-37.80245215,144.9494613,3051
Avatar Indian Cuisine,Indian,1,$$ - $$$,restaurant,4.5,"291 Whitehorse Rd Opposite Balwyn Park, Balwyn, Boroondara, Victoria 3103 Australia",88,-37.810875,145.081537,3103
Axil Coffee Roasters,Australian,150,$$ - $$$,restaurant,4.5,"322 Burwood Rd Hawthorn Not Camberwell, Melbourne, Victoria 3122 Australia",200,-37.822645,145.034259,3122
Bacash Restaurant,Australian,219,$$$$,restaurant,4.5,"175 Domain Rd, Melbourne, Victoria 3141 Australia",208,-37.8341965,144.9819812,3141
Bahari the Hellenic Palate,Greek,9,$$ - $$$,restaurant,4.5,"179 Swan St, Richmond, Yarra, Victoria 3121 Australia",147,-37.82595449,145.0013134,3121
Bamboo House Chinese Restaurant,Chinese,90,$$ - $$$,restaurant,4.5,"47 Little Bourke St, Melbourne, Victoria 3000 Australia",405,-37.81356123,144.9619623,3000
Banff,Cafe,8,$,restaurant,4.5,"145 Fitzroy St, St Kilda, Port Phillip, Victoria 3182 Australia",384,-37.859416,144.978575,3182
Bangkok Jam,Thai,205,$$ - $$$,restaurant,4.5,"107 Little Bourke St, Melbourne, Victoria 3000 Australia",100,-37.81357667,144.9619085,3000
BangPop,Asian Fusion,119,$$ - $$$,restaurant,4,"35 South Wharf Promenade Off Dukes Walk, South Wharf, Melbourne, Victoria 3006 Australia",559,-37.825071,144.978682,3006
Bar Lourinha,European,172,$$ - $$$,restaurant,4.5,"37 Little Collins St, Melbourne, Victoria 3000 Australia",284,-37.812765,144.972476,3000
B'Churrasco Brazilian BBQ,Brazilian,43,$$ - $$$,restaurant,4.5,"61 A'Beckett St, Melbourne, Victoria 3000 Australia",557,-37.809074,144.961813,3000
BearBrass,Australian,252,$$ - $$$,restaurant,4,"Shop GR3A 3 Southgate Ave Southbank VIC, Melbourne, Victoria 3006 Australia",625,-37.8201768,144.966393,3006
Becco,Italian,124,$$$$,restaurant,4.5,"11-25 Crossley St, Melbourne, Victoria 3000 Australia",378,-37.811422,144.97099,3000
Beer DeLuxe,Bar,277,$$ - $$$,restaurant,4,"Federation Square Corner Swanston and Flinders Streets, Melbourne, Victoria 3000 Australia",304,-37.817759,144.967177,3000
Belgian Beer Cafe,Belgian,300,$$ - $$$,restaurant,4,"5 Riverside Qy Southbank, Melbourne, Victoria 3006 Australia",256,-37.8214816,144.9644575,3006
Bella Cosi,Italian,446,$$ - $$$,restaurant,4.5,"71 Beach St, Melbourne, Victoria 3207 Australia",71,-37.8417691,144.9361791,3207
Berth,Australian,109,$$ - $$$,restaurant,4,"45 New Quay Promenade Docklands, Melbourne, Victoria 3008 Australia",568,-37.818898,144.948291,3008
Betty's Burgers & Concrete Co,American,44,$,restaurant,4.5,"97 Elizabeth St, Melbourne, Victoria 3000 Australia",1215,-37.73500723,144.9827849,3000
Betty's Burgers,American,185,$$ - $$$,restaurant,4.5,"222 Exhibition St, Melbourne, Victoria 3000 Australia",86,-37.81065085,144.9703775,3000
Bibelot,Cafe,293,$$ - $$$,restaurant,4.5,"285-287 Coventry St, Melbourne, Victoria 3205 Australia",80,-37.8326131,144.9581853,3205
Bistro Gitan,French,2,$$ - $$$,restaurant,4.5,"52 Toorak Rd West, South Yarra, Victoria 3141 Australia",268,-37.838701,144.988198,3141
Bistro Guillaume,French,160,$$$$,restaurant,4,"Crown Entertainment Complex 8 Whiteman St Riverside at Crown, Southbank, Melbourne, Victoria 3006 Australia",1115,-37.824314,144.956852,3006
Bistro La Provence,French,6,$$ - $$$,restaurant,4.5,"234 Esplanade, Brighton, Bayside, Victoria 3186 Australia",146,-37.909629,144.986619,3186
Bistro Thierry,French,1,$$$$,restaurant,4.5,"511 Malvern Rd, Toorak, Stonnington, Victoria 3142 Australia",540,-37.847975,145.003514,3142
Bistrot d'Orsay,French,29,$$ - $$$,restaurant,4.5,"184 Collins St, Melbourne, Victoria 3000 Australia",497,-37.815058,144.967541,3000
Black Pearl Bar,Bar,338,$$ - $$$,restaurant,4.5,"304 Brunswick Street, Melbourne, Victoria Fitzroy Australia",68,-37.7980678,144.9786893,3065
Blondie Bar,Asian,155,$$ - $$$,restaurant,4,"Corner Sturt Street & Southbank Boulevard, Southbank Melbourne Recital Centre, Melbourne, Victoria 3006 Australia",258,-37.8239482,144.9672165,3006
Blue Chillies,Malaysian,16,$$ - $$$,restaurant,4.5,"182 Brunswick St, Fitzroy, Yarra, Victoria 3065 Australia",145,-37.8021549,144.9779347,3065
Bluetrain,Australian,268,$$ - $$$,restaurant,3.5,"Southgate Complex, Upper Level, Melbourne, Victoria 3006 Australia",667,-37.82333165,144.9582858,3006
Bomba,Spanish,65,$$ - $$$,restaurant,4.5,"103 Lonsdale St, Melbourne, Victoria 3000 Australia",457,-37.810455,144.969243,3000
Boosa,Middle Eastern,2,$$ - $$$,restaurant,4.5,"716 Centre Rd, Bentleigh, Glen Eira, Victoria 3165 Australia",97,-37.92122025,145.0579527,3165
"Borsch, Vodka & Tears",Russian,5,$$ - $$$,restaurant,4,"173 Chapel St, Windsor, Stonnington, Victoria 3181 Australia",236,-37.852131,144.993129,3181
Bottega,Italian,96,$$$$,restaurant,4,"74 Bourke St, Melbourne, Victoria 3000 Australia",405,-37.81187515,144.970758,3000
Bouzy Rouge,Spanish,2,$$ - $$$,restaurant,4.5,"470 Bridge Rd, Richmond, Yarra, Victoria 3121 Australia",358,-37.8195223,145.0071854,3121
Bowery to Williamsburg,American,55,$$ - $$$,restaurant,4.5,"16 Oliver Lane, Melbourne, Victoria 3000 Australia",322,-37.8161924,144.9701951,3000
Box Seafood Restaurant,Seafood,168,$$$$,restaurant,4,"189 Collins St, Melbourne, Victoria 3000 Australia",416,-37.815395,144.967671,3000
Brick Lane Melbourne,Cafe,14,$$ - $$$,restaurant,4.5,"33 Guildford Lane, Melbourne, Victoria 3000 Australia",208,-37.811448,144.959847,3000
Brighton Soul,Cafe,5,$,restaurant,4.5,"129 Church Street, Brighton, Bayside, Victoria 3186 Australia",131,-37.915485,144.996401,3186
Brother Baba Budan,Cafe,30,$,restaurant,4.5,"359 Little Bourke St Cbd, Melbourne, Victoria 3000 Australia",440,-37.8136415,144.9616826,3000
Brunetti Classico - Carlton,Italian,79,$$ - $$$,restaurant,4.5,"380 Lygon St 380 Lygon St, Carlton Vic, Melbourne, Victoria 3053 Australia",3247,-37.7978092,144.9680124,3053
Brunetti Oro Flinders Lane,Italian,176,$$ - $$$,restaurant,4,"250 Flinders Ln, Melbourne, Victoria 3000 Australia",332,-37.816703,144.965789,3000
Byblos Bar & Restaurant,Middle Eastern,191,$$ - $$$,restaurant,4,"12 World Trade Centre, Melbourne, Victoria 3005 Australia",314,-37.8231818,144.9535051,3005
Ca de Vin,Italian,136,$$ - $$$,restaurant,4,"350 Bourke St Melbourne GPO, Melbourne, Victoria 3000 Australia",523,-37.813982,144.9632917,3000
Cafe Andiamo,Italian,226,$$ - $$$,restaurant,4,"36-38 Degraves Lane, Melbourne, Victoria 3000 Australia",553,-37.825071,144.978682,3000
Cafe Cavallino,Cafe,410,$$ - $$$,restaurant,4,"181-183 Lygon Street, Melbourne, Victoria Australia",260,-37.8014148,144.9665195,3053
Cafe Excello,Cafe,193,$$ - $$$,restaurant,4,"99 Spring St, Melbourne, Victoria 3000 Australia",220,-37.72885542,145.0005483,3000
Cafe Issus,Cafe,339,$$ - $$$,restaurant,4,"8-10 Centre Pl, Melbourne, Victoria 3000 Australia",264,-37.816712,144.965643,3000
Cafe Keyif,Cafe,343,$$ - $$$,restaurant,4.5,"U 1 550 Flinders St Entry Through Downie Street, Melbourne, Victoria 3000 Australia",138,-37.825071,144.978682,3000
Cafe Rosco,Irish,130,$$ - $$$,restaurant,4.5,"407D St Kilda Rd, Melbourne, Victoria 3004 Australia",232,-37.83632,144.976226,3004
Cafe Segovia,Cafe,308,$$ - $$$,restaurant,4,"33 Block Place, Melbourne, Victoria 3000 Australia",297,-37.815174,144.964243,3000
Caffe e Cucina,Italian,147,$$ - $$$,restaurant,4,"581 Chapel St South Yarra, Melbourne, Victoria 3141 Australia",490,-37.8401905,144.9952216,3141
Caffe e Torta,Italian,232,$$ - $$$,restaurant,4,"314 Little Collins St, Melbourne, Victoria 3000 Australia",289,-37.8149832,144.9642323,3000
Cargo Restaurant,Australian,86,$$ - $$$,restaurant,4.5,"Docklands Melbourne, Melbourne, Victoria 3008 Australia",696,-37.81874417,144.9409945,3008
Carlton Curry House,Indian,400,$$ - $$$,restaurant,4.5,"108 Lygon St, Melbourne, Victoria 3053 Australia",204,-37.80451785,144.966548,3053
Carlton Wine Room,European,142,$$ - $$$,restaurant,4.5,"172-174 Faraday Street Carlton, Melbourne, Victoria Australia",205,-37.79861035,144.9685899,3053
Carosello,Italian,2,$$ - $$$,restaurant,4.5,"22 Margaret St, Moonee Ponds, Moonee Valley, Victoria 3039 Australia",88,-37.765872,144.9196726,3039
Caterina's Cucina E Bar,Italian,85,$$ - $$$,restaurant,5,"221 Queen St, Melbourne, Victoria 3000 Australia",111,-37.813555,144.959755,3000
Cecconi's Flinders Lane,Italian,80,$$$$,restaurant,4.5,"61 Flinders Lane, Melbourne, Victoria 3000 Australia",539,-37.814985,144.972503,3000
Centonove,Italian,1,$$$$,restaurant,4.5,"109 Cotham Rd, Kew, Boroondara, Victoria 3101 Australia",252,-37.8077017,145.0387516,3101
Cherry & Twigs,Cafe,233,$,restaurant,4.5,"Shop 1B 555 Flinders Lane, Melbourne, Victoria 3000 Australia",135,-37.819944,144.955791,3000
Chez Dre Cafe,Cafe,229,$$ - $$$,restaurant,4,"Rear of 285/287 Coventry St Access Via Alleyway, Melbourne, Victoria 3205 Australia",386,-37.825071,144.978682,3205
Chez Olivier,French,1,$$ - $$$,restaurant,4.5,"268 Toorak Rd, South Yarra, Victoria 3141 Australia",356,-37.839663,144.996381,3141
Chiba Japanese Restaurant,Japanese,4,$$ - $$$,restaurant,4.5,"41 Hall St, Moonee Ponds, Moonee Valley, Victoria 3039 Australia",185,-37.7661223,144.9217318,3039
Chin Chin,Thai,162,$$ - $$$,restaurant,4.5,"125 Flinders Lane, Melbourne, Victoria 3000 Australia",6029,-37.8155839,144.9703425,3000
China Red,Chinese,181,$$ - $$$,restaurant,4,"Shop 6 206 Bourke St, Melbourne, Victoria 3000 Australia",353,-37.812915,144.96702,3000
Chinta Ria Soul,Malaysian,18,$$ - $$$,restaurant,4,"94 Acland St, St Kilda, Port Phillip, Victoria 3182 Australia",247,-37.8677361,144.9791344,3182
Chocolate Buddha,Korean,32,$$ - $$$,restaurant,4.5,"Cnr. Flinders & Swanston Street Federation Square, Melbourne, Victoria 3000 Australia",717,-37.81731,144.973724,3000
Chokolait Hub,Cafe,106,$$ - $$$,restaurant,4.5,"287 Lonsdale St Shop 342, Level 3, Emporium, Melbourne, Victoria 3000 Australia",410,-37.8127833,144.9632217,3000
Chuckle Park Bar,Bar,188,$$ - $$$,restaurant,4.5,"322 Little Collins St, Melbourne, Victoria 3000 Australia",157,-37.814973,144.964078,3000
Ciao Cielo,Italian,159,$$ - $$$,restaurant,4.5,"115 Bay St, Melbourne, Victoria 3207 Australia",268,-37.8403471,144.940449,3207
Cicciolina,Italian,62,$$ - $$$,restaurant,4.5,"130 Acland St, Melbourne, Victoria 3182 Australia",375,-37.8685318,144.979892,3182
City Wine Shop,European,212,$$ - $$$,restaurant,4.5,"159 Spring St, Melbourne, Victoria 3000 Australia",255,-37.72442393,145.0013901,3000
Claypots Barbarossa,Seafood,237,$$ - $$$,restaurant,4.5,"79 Hardware Lane Melbourne CBD, Melbourne, Victoria 3000 Australia",190,-37.812973,144.960655,3000
Claypots Evening Star,Seafood,372,$$ - $$$,restaurant,4.5,"Corner Cecil and York Streets South Melbourne Market, Melbourne, Victoria 3205 Australia",137,-37.832491,144.955623,3205
Claypots Seafood Bar,Australian,4,$$ - $$$,restaurant,4.5,"213 Barkly St, St Kilda, Port Phillip, Victoria 3182 Australia",525,-37.869921,144.980493,3182
Cochin Wine Bar & Restaurant,Vietnamese,10,$$ - $$$,restaurant,4.5,"256 Swan St, Richmond, Yarra, Victoria 3121 Australia",118,-37.8245815,144.9890862,3121
Coda,Asian Fusion,49,$$$$,restaurant,4.5,"141 Flinders Lane, Melbourne, Victoria 3000 Australia",1150,-37.8157958,144.969886,3000
Code Black,Cafe,3,$$ - $$$,restaurant,4.5,"15-17 Weston St, Brunswick, Moreland, Victoria 3056 Australia",187,-37.7747411,144.9609709,3056
Collins Kitchen,Australian,357,$$$$,restaurant,4,"123 Collins St, Melbourne, Victoria 3000 Australia",273,-37.8154789,144.9701933,3000
Conservatory,Asian,108,$$$$,restaurant,4,"Crown Entertainment Complex 8 Whiteman St 8 Whiteman St, Southbank, Melbourne, Victoria 3006 Australia",1129,-37.8242677,144.9577541,3006
Cookie,Asian,95,$$ - $$$,restaurant,4,"U 1 252 Swanston St Level 1, 252 Swanston St, Melbourne, Victoria 3000 Australia",1050,-37.81188904,144.9650773,3000
Corner & Bench,Cafe,346,$,restaurant,4.5,"408 Bourke St, Melbourne, Victoria 3000 Australia",86,-37.814528,144.961567,3000
Cornish Arms Hotel,Bar,4,$$ - $$$,restaurant,4,"163A Sydney Rd, Brunswick, Moreland, Victoria 3056 Australia",184,-37.77339575,144.9607752,3056
Crossways Restaurant,Indian,297,$,restaurant,4.5,"309-325 Bourke St, Melbourne, Victoria 3000 Australia",104,-37.814122,144.964387,3000
Cucinetta,Italian,10,$$ - $$$,restaurant,4.5,"U 4 3 Murphy St South Yarra, Melbourne, Victoria 3141 Australia",401,-37.8383166,144.9901593,3141
Cumulus Inc.,European,59,$$ - $$$,restaurant,4.5,"45 Flinders La, Melbourne, Victoria 3000 Australia",2123,-37.8149337,144.9731078,3000
Curry Vault Indian Restaurant and Bar,Indian,334,$$ - $$$,restaurant,4,"18-20 Bank Pl, Melbourne, Victoria 3000 Australia",300,-37.816429,144.960449,3000
D.O.C,Italian,356,$$ - $$$,restaurant,4,"326 Lygon St Carlton, Melbourne, Victoria 3053 Australia",262,-37.7993126,144.9673738,3053
Da Guido 365,Italian,7,$$ - $$$,restaurant,4.5,"365 Little Collins St, Melbourne, Victoria 3000 Australia",524,-37.8155987,144.962708,3000
Da Guido La Pasta,Italian,2,$$ - $$$,restaurant,4.5,"130 Lygon St Carlton, Melbourne, Victoria 3053 Australia",1095,-37.8040591,144.9665336,3053
Da Noi,Italian,270,$$$$,restaurant,4,"95 Toorak Rd South Yarra, Melbourne, Victoria 3141 Australia",274,-37.83751,144.9799798,3141
Daughter in Law,Indian,404,$$ - $$$,restaurant,4,"37 Little Bourke St Ground Floor, Melbourne, Victoria 3000 Australia",113,-37.81355866,144.9619712,3000
David's Master Pot (Elizabeth St - CBD),Chinese,21,$$ - $$$,restaurant,5,"462 Elizabeth St, Melbourne, Victoria 3000 Australia",140,-37.80783118,144.9604471,3000
Delhi Streets Indian Street Food,Indian,37,$,restaurant,4.5,"22 Katherine Pl, Melbourne, Victoria 3000 Australia",262,-37.8198762,144.9565119,3000
Dip In Cafe,Cafe,314,$$ - $$$,restaurant,4.5,"20-22 McKillop St, Melbourne, Victoria 3000 Australia",100,-37.8151769,144.9618234,3000
Dish & Spoon,Cafe,2,$$ - $$$,restaurant,4.5,"122 Highfield Rd, Camberwell, Victoria 3124 Australia",72,-37.837892,145.084511,3124
DOC Pizza & Mozzarella Bar,Italian,91,$$ - $$$,restaurant,4.5,"295 Drummond St, Melbourne, Victoria 3053 Australia",672,-37.7989641,144.9685283,3053
Dock 37 Bar and Kitchen,Australian,337,$$ - $$$,restaurant,4,"2 Convention Centre Pl South Wharf, Melbourne, Victoria 3006 Australia",177,-37.8251677,144.9486249,3006
DoDee Paidang Thai Bar and Cafe,Thai,117,$,restaurant,4.5,"353 Little Collins St, Melbourne, Victoria 3000 Australia",185,-37.8157451,144.9630281,3000
Don Don Japanese,Japanese,274,$,restaurant,4,"198 Little Lonsdale St, Melbourne, Victoria 3000 Australia",241,-37.810527,144.96173,3000
Donnini's Restaurant,Italian,152,$$ - $$$,restaurant,4.5,"320 Lygon St Carlton, Melbourne, Victoria 3053 Australia",297,-37.79952795,144.96752,3053
Donovans,Australian,1,$$$$,restaurant,4.5,"40 Jacka Boulevard, St Kilda, Port Phillip, Victoria 3182 Australia",1022,-37.866664,144.973989,3182
Dukes Coffee Roasters,Cafe,89,$,restaurant,4.5,"247 Flinders Lane, Melbourne, Victoria 3000 Australia",182,-37.8167849,144.9661412,3000
Dumplings Plus,Chinese,381,$,restaurant,4,"269 Swanston St, Melbourne, Victoria 3000 Australia",264,-37.8119674,144.964692,3000
Dunyazad,Lebanese,235,$$ - $$$,restaurant,4.5,"329 Doncaster Rd, Balwyn North, Boorandara, Melbourne, Victoria VIC 3104 Australia",171,-37.7906422,145.095954,3104
Eau De Vie,Bar,15,$$ - $$$,restaurant,4.5,"1 Malthouse Lane, Melbourne, Victoria 3000 Australia",814,-37.8157957,144.9715873,3000
Ecco,Italian,335,$$ - $$$,restaurant,4,"97 Toorak Rd, Melbourne, Victoria 3141 Australia",157,-37.83751,144.9799798,3141
Elephant and Wheelbarrow,Bar,327,$$ - $$$,restaurant,3.5,"94-96 Bourke St, Melbourne, Victoria 3000 Australia",582,-37.811917,144.970217,3000
Eliana Lulu,Cafe,287,$$ - $$$,restaurant,4,"7-9 Centre Pl, Melbourne, Victoria 3000 Australia",166,-37.816611,144.965533,3000
Embla,Australian,70,$$ - $$$,restaurant,4.5,"122 Russell St, Melbourne, Victoria 3000 Australia",266,-37.8134701,144.9686023,3000
Encore Bar and Restaurant,European,210,$$ - $$$,restaurant,4.5,"131 Lonsdale St, Melbourne, Victoria 3000 Australia",135,-37.810713,144.968409,3000
Epocha,European,128,$$$$,restaurant,4.5,"49 Rathdowne St Carlton South, Melbourne, Victoria 3053 Australia",254,-37.8059941,144.9687187,3053
Esca Grill,Italian,1,$$$$,restaurant,4.5,"650 Mt Alexander Rd, Moonee Ponds, Moonee Valley, Victoria 3039 Australia",345,-37.77031787,144.9262092,3039
Estelle,Australian,1,$$$$,restaurant,4.5,"243 High St, Northcote, Victoria 3070 Australia",395,-37.7732465,144.9980758,3070
Eureka 89,Australian,190,$$$$,restaurant,4.5,"7 Riverside Quay Level 89, Eureka Tower, Melbourne, Victoria 3006 Australia",264,-37.8217537,144.9646549,3006
Fifteen Pounds Cafe,Cafe,1,$$ - $$$,restaurant,4.5,"21 Railway Place, Fairfield, Yarra, Victoria 3078 Australia",84,-37.8261747,144.9963507,3078
Fiorelli,European,1,$$ - $$$,restaurant,4.5,"209 Camberwell Road, Camberwell, Victoria 3124 Australia",213,-37.830402,145.055857,3124
Fitzrovia,Cafe,3,$$ - $$$,restaurant,4.5,"155 Fitzroy St, St Kilda, Port Phillip, Victoria 3182 Australia",732,-37.8589287,144.9792505,3182
Flora Indian Restaurant,Indian,385,$,restaurant,4,"238A Flinders St, Melbourne, Victoria 3000 Australia",235,-37.817517,144.966498,3000
Flower Drum,Chinese,42,$$$$,restaurant,4.5,"17 Market Lane, Melbourne, Victoria 3000 Australia",1367,-37.811867,144.969217,3000
Foglia di Fico,Italian,3,$$ - $$$,restaurant,5,"585 La Trobe St (Spencer St entrance), Melbourne, Victoria 3000 Australia",202,-37.813278,144.951827,3000
Fonda Mexican,Mexican,349,$$ - $$$,restaurant,4,"31 Flinders Lane, Melbourne, Victoria 3000 Australia",312,-37.81488565,144.9732649,3000
France Soir,French,154,$$$$,restaurant,4,"11 Toorak Rd South Yarra, Melbourne, Victoria 3141 Australia",654,-37.8381528,144.9869833,3141
Franco-Belge,French,377,$$ - $$$,restaurant,4.5,"9 Evans Place, Hawthorn East, Melbourne, Victoria 3123 Australia",74,-37.8301533,145.0554946,3123
French Saloon,French,370,$$$$,restaurant,4.5,"46 Hardware Lane First Floor, Melbourne, Victoria 3000 Australia",92,-37.813555,144.961322,3000
Galleon Cafe,Cafe,5,$$ - $$$,restaurant,4.5,"9 Carlisle St, St Kilda, Port Phillip, Victoria 3182 Australia",260,-37.867056,144.97898,3182
Ganache Chocolate,Dessert,87,$$ - $$$,restaurant,4.5,"245 Collins St, Melbourne, Victoria 3000 Australia",260,-37.8158768,144.9657264,3000
Garden State Hotel,Bar,345,$$ - $$$,restaurant,4,"101 Flinders Lane, Melbourne, Victoria 3000 Australia",299,-37.8153755,144.971045,3000
George Street Cafe,Cafe,332,$$ - $$$,restaurant,4.5,"65 George St, Melbourne, Victoria 3002 Australia",66,-37.81572955,144.9881636,3002
Geppetto Trattoria,Italian,5,$$ - $$$,restaurant,4.5,"78A Wellington Pde, Melbourne, Victoria 3002 Australia",439,-37.8163531,144.9874328,3002
Gimlet At Cavendish House,European,208,$$$$,restaurant,4.5,"33 Russell St, Melbourne, Victoria 3000 Australia",104,-37.8158796,144.9693073,3000
Gin Palace,Bar,156,$$ - $$$,restaurant,4.5,"10 Russell Pl, Melbourne, Victoria 3000 Australia",274,-37.8138376,144.9674924,3000
Ginger Olive Restaurant and Grill,Steakhouse,164,$$ - $$$,restaurant,5,"U 2 38 Manchester Lane Corner Manchester Lane and Flinders Lane, Melbourne, Victoria 3000 Australia",80,-32.2752836,115.7328451,3000
Gingerboy,Bar,77,$$ - $$$,restaurant,4.5,"27-29 Crossley St, Melbourne, Victoria 3000 Australia",990,-37.811159,144.9709703,3000
Ginza Teppanyaki,Japanese,380,$$ - $$$,restaurant,4,"139 Little Bourke St, Melbourne, Victoria 3000 Australia",229,-37.8135849,144.9618798,3000
Giro d'Italia,Italian,74,$$ - $$$,restaurant,5,"401 Saint Kida Road, Melbourne, Victoria 3000 Australia",84,-37.825071,144.978682,3000
Gopal's Vegetarian,Vegetarian,242,$,restaurant,4.5,"139 Swanston St, Melbourne, Victoria 3000 Australia",170,-37.8144005,144.9657961,3000
Gordon's Cafe & Bar,Cafe,292,$$ - $$$,restaurant,4,"306 Little Collins St Shop 4, Melbourne, Victoria 3000 Australia",147,-37.814879,144.964421,3000
Gourmet Curry Hut,Indian,247,$$ - $$$,restaurant,4.5,"318 Hub Arcade Little Collins Street, Melbourne, Victoria 3000 Australia",175,-37.825071,144.978682,3000
Gradi Crown,Italian,246,$$ - $$$,restaurant,4,"Crown Entertainment Complex 8 Whiteman St Shop 25, Melbourne, Victoria 3006 Australia",1093,-37.82333165,144.9582858,3006
Grand Trailer Park Taverna,American,82,$$ - $$$,restaurant,4.5,"87 Bourke St, Melbourne, Victoria 3000 Australia",296,-37.812124,144.970916,3000
Grill Steak Seafood,Australian,68,$$ - $$$,restaurant,4.5,"68 - 78 Hardware Lane, Melbourne, Victoria 3000 Australia",1479,-37.813028,144.961076,3000
Grill'd Degraves St,American,263,$,restaurant,4,"15 Degraves St, Melbourne, Victoria 3000 Australia",219,-37.53145965,144.9081925,3000
Grill'd QV,American,309,$$ - $$$,restaurant,4,"Level 2, Queen Victoria Square, Melbourne, Victoria 3000 Australia",235,-37.825071,144.978682,3000
GRK Greek Kitchen & Bar,Greek,1,$$ - $$$,restaurant,4.5,"845/847 High St, Thornbury, Darebin, Victoria 3071 Australia",115,-37.75500965,145.0009047,3071
Grossi  Florentino,Italian,133,$$$$,restaurant,4,"80 Bourke St, Melbourne, Victoria 3000 Australia",1262,-37.81192488,144.9705843,3000
Hakata Gensuke Ramen,Japanese,54,$,restaurant,4.5,"168 Russell St, Melbourne, Victoria 3000 Australia",369,-37.81208155,144.9679716,3000
Half Moon Cafe,Egyptian,1,$,restaurant,5,"13 Victoria St Shop 13, Coburg, Moreland, Victoria 3058 Australia",65,-37.7423284,144.9581778,3058
Hanoi Mee Kitchen & Bar,Vietnamese,184,$$ - $$$,restaurant,4.5,"140 Rouse St Port Melbourne, Melbourne, Victoria 3207 Australia",112,-37.8421333,144.939829,3207
Hawker Boys,Vietnamese,399,$,restaurant,4.5,"85 Hardware Lane, Melbourne, Victoria 3000 Australia",70,-37.8129616,144.9607886,3000
Hawker Hall,Singaporean,4,$$ - $$$,restaurant,4,"98 Chapel St, Windsor, Stonnington, Victoria 3181 Australia",506,-37.854552,144.993069,3181
Higher Ground,Cafe,134,$$ - $$$,restaurant,4,"650 Little Bourke St, Melbourne, Victoria 3000 Australia",713,-37.8157716,144.9536531,3000
Hochi Mama,Thai,17,$$ - $$$,restaurant,4.5,"35 Little Bourke St, Melbourne, Victoria 3000 Australia",1469,-37.81355815,144.961973,3000
Hooks At The Yarra,Australian,390,$$ - $$$,restaurant,4.5,"Yarra's Edge 50 River Esp Docklands, Melbourne, Victoria 3008 Australia",130,-37.822802,144.9406234,3008
Hopetoun Tea Rooms est. 1892,Dessert,26,$$ - $$$,restaurant,4.5,"421 Bourke St Hopetoun Tea Rooms, Melbourne, Victoria 3000 Australia",2311,-37.814922,144.961637,3000
Hophaus Bar,Bar,251,$$ - $$$,restaurant,4,"Southgate Ave Shop MR5, Mid-Level, Southbank Promenade, Melbourne, Victoria 3006 Australia",471,-37.8199197,144.9664768,3006
Hopscotch,Bar,288,$$ - $$$,restaurant,3.5,"Ground Floor, 4 Riverside Quay Southbank, Melbourne, Victoria 3006 Australia",589,-37.8207939,144.9632031,3006
Hot Poppy,Cafe,364,$$ - $$$,restaurant,4.5,"9 Errol St, Melbourne, Victoria 3051 Australia",74,-37.8047581,144.9490968,3051
HQ's On William,Australian,122,$$ - $$$,restaurant,4.5,"380 William St Radisson on Flagstaff Gardens, Melbourne, Victoria 3000 Australia",306,-37.810355,144.956038,3000
Humble Rays,Cafe,267,$$ - $$$,restaurant,4.5,"71 Bouverie St Carlton, Melbourne, Victoria 3053 Australia",88,-37.8047561,144.9614974,3053
Hunky Dory,Australian,240,$,restaurant,4.5,"670 Chapel Street Shop 17, Melbourne, Victoria 3205 Australia",245,-37.8375027,144.9961815,3205
Hurricane Handsome,Cafe,341,$$ - $$$,restaurant,4.5,"329-331 Bay St, Melbourne, Victoria 3207 Australia",89,-37.8425339,144.938633,3207
Hutong Dumpling Bar,Chinese,153,$$ - $$$,restaurant,4,"14-16 Market Lane, Melbourne, Victoria 3000 Australia",766,-37.8118714,144.9693954,3000
Ides,Japanese,170,$$$$,restaurant,4.5,"92 Smith St, Melbourne, Victoria 3066 Australia",129,-37.805621,144.983311,3066
Il Bacaro Cucina e Bar,Italian,12,$$$$,restaurant,4.5,"68-170 Little Collins St 168-170 Little Collins St, Melbourne, Victoria 3000 Australia",504,-37.825071,144.978682,3000
IL Dolce Freddo,Dessert,146,$,restaurant,4.5,"116 Lygon Street, Carlton, Melbourne, Victoria 3053 Australia",175,-37.804343,144.9666022,3053
Il Duca,Italian,157,$$ - $$$,restaurant,4.5,"132 Wellington Pde, Melbourne, Victoria 3002 Australia",242,-37.8162493,144.9856524,3002
Il Gambero,Italian,303,$$ - $$$,restaurant,4,"166 Lygon St Carlton, Melbourne, Victoria 3053 Australia",322,-37.8033049,144.9666943,3053
Il Solito Posto,Italian,23,$$ - $$$,restaurant,4.5,"113 Collins St via George Parade, Melbourne, Victoria 3000 Australia",989,-37.825071,144.978682,3000
Indian Palace Restaurant,Indian,4,$$ - $$$,restaurant,4.5,"131 Church St, Brighton, Bayside, Victoria 3186 Australia",153,-37.915522,144.996434,3186
Isan Soul Thai Street Food,Thai,265,$$ - $$$,restaurant,4.5,"98 Bourke St, Melbourne, Victoria 3000 Australia",89,-37.81207407,144.9700632,3000
Ish Restaurant,Indian,15,$$ - $$$,restaurant,5,"199 Gertrude St, Fitzroy, Yarra, Victoria 3065 Australia",62,-37.8060268,144.9812022,3065
Izakaya Den,Japanese,173,$$ - $$$,restaurant,4.5,"Basement 118 Russell St, Melbourne, Victoria 3000 Australia",258,-37.8136078,144.9686931,3000
Japanese Teppanyaki Inn,Japanese,107,$$$$,restaurant,4.5,"182 Collins St, Melbourne, Victoria 3000 Australia",219,-37.8146876,144.9674253,3000
Jim's Greek Tavern,Greek,5,$$ - $$$,restaurant,4,"32 Johnston St, Collingwood, Yarra, Victoria 3066 Australia",457,-37.7989828,144.9857781,3066
Jinda Thai,Thai,1,$$ - $$$,restaurant,4.5,"3-7 Ferguson St, Abbotsford, Yarra, Victoria 3067 Australia",328,-37.8093414,144.9924211,3067
Journeyman,Cafe,3,$$ - $$$,restaurant,4.5,"169 Chapel St, Windsor, Stonnington, Victoria 3181 Australia",203,-37.852221,144.993115,3181
Juicy Bao,Chinese,123,$,restaurant,4.5,"178-190 Little Bourke St Shop 2, Melbourne, Victoria 3000 Australia",365,-37.81192327,144.9670626,3000
Jungle Juice Bar,Cafe,393,$,restaurant,4.5,"20 Centre Pl, Melbourne, Victoria 3000 Australia",78,-37.816712,144.965643,3000
Kazuki's,Japanese,9,$$$$,restaurant,4.5,"121 Lygon St Carlton, Melbourne, Victoria 3053 Australia",500,-37.80414695,144.9660324,3053
Kekou,Malaysian,7,$$ - $$$,restaurant,5,"396 Bridge Road, Richmond, Yarra, Victoria 3121 Australia",64,-37.81925638,145.0046463,3121
Kenzan Japanese Restaurant,Japanese,105,$$ - $$$,restaurant,4.5,"56 Flinders Lane At Collins Place, Melbourne, Victoria 3000 Australia",278,-37.825071,144.978682,3000
Khao San Road,Thai,5,$$ - $$$,restaurant,4.5,"696 Mt Alexander Rd, Moonee Ponds, Moonee Valley, Victoria 3039 Australia",114,-37.7686731,144.9255698,3039
Kirks Wine Bar,French,243,$$ - $$$,restaurant,4,"Cnr Hardware Lane and Little Bourke, Melbourne, Victoria 3000 Australia",217,-32.750252,151.575885,3000
Kisume,Japanese,234,$$$$,restaurant,4,"175 Flinders Lane, Melbourne, Victoria 3000 Australia",399,-37.816048,144.968644,3000
Kiwi Fish & Chips,Australian,382,$$ - $$$,restaurant,4.5,"412-422 Victoria Pde Shop 9B, Melbourne, Victoria 3002 Australia",89,-37.8096501,144.9852705,3002
Koko Black,Dessert,312,$$ - $$$,restaurant,4.5,"167 Lygon St, Melbourne, Victoria 3053 Australia",187,-37.80178055,144.9664582,3053
Koko Black Chocolate,Dessert,38,$$ - $$$,restaurant,4.5,"52 Collins St, Melbourne, Victoria 3000 Australia",558,-37.81356675,144.9718475,3000
Koko Japanese Restaurant,Japanese,241,$$$$,restaurant,4,"Crown Entertainment Complex 8 Whiteman St 8 Whiteman St, Southbank, Melbourne, Victoria 3006 Australia",323,-37.8242677,144.9577541,3006
Kri Kri,Greek,333,$$ - $$$,restaurant,4,"39-41 Little Bourke St, Melbourne, Victoria 3000 Australia",370,-37.810791,144.971501,3000
La Belle Miette,Dessert,239,$$ - $$$,restaurant,4.5,"8 Collins St, Melbourne, Victoria 3000 Australia",121,-37.81313025,144.9732628,3000
La Cucina Di Sandra,Italian,5,$$ - $$$,restaurant,5,"62 Lyndhurst St Warehouse 62, Richmond, Yarra, Victoria 3121 Australia",73,-37.8191458,145.0007082,3121
La Luna Bistro,Steakhouse,69,$$ - $$$,restaurant,4.5,"320 Rathdowne St Carlton, North, Melbourne, Victoria 3054 Australia",384,-37.7910853,144.9718262,3054
La Petite Creperie,Dessert,294,$,restaurant,4.5,"125 Swanston St Opposite Melbourne Town Hall, Melbourne, Victoria Australia",155,-37.8033733,144.9499621,3000
La Roche,Bar,13,$$ - $$$,restaurant,4.5,"185 Acland St, St Kilda, Port Phillip, Victoria 3182 Australia",325,-37.86955,144.980401,3182
La Spaghettata,Italian,163,$$ - $$$,restaurant,4,"238 Lygon St, Melbourne, Victoria 3053 Australia",536,-37.8016097,144.9671276,3053
Laksa King,Malaysian,61,$,restaurant,4.5,"6-12 Pin Oak Cres Flemington, Melbourne, Victoria 3031 Australia",557,-37.78784065,144.9296235,3031
Lamaro's Hotel,Bar,328,$$ - $$$,restaurant,4,"273 Cecil St, Melbourne, Victoria 3205 Australia",194,-37.8384573,144.960606,3205
Laurent Bakery,Cafe,311,$$ - $$$,restaurant,4,"306 Little Collins St, Melbourne, Victoria 3000 Australia",352,-37.814879,144.964421,3000
Le Bon Ton,American,3,$$ - $$$,restaurant,4,"51 Gipps St, Collingwood, Yarra, Victoria 3066 Australia",306,-37.8047536,144.9886343,3066
Le Petit Gateau,Dessert,315,$$ - $$$,restaurant,4.5,"458 Little Collins St, Melbourne, Victoria 3000 Australia",76,-37.815574,144.959368,3000
Le Petite Bourke,Cafe,275,$$ - $$$,restaurant,4.5,"24 Little Bourke St, Melbourne, Victoria 3000 Australia",130,-37.81060509,144.9716454,3000
Lee Ho Fook,Chinese,202,$$ - $$$,restaurant,4.5,"11-15 Duckboard Pl, Melbourne, Victoria 3000 Australia",200,-37.815602,144.971308,3000
Left Bank Melbourne,Bar,368,$$ - $$$,restaurant,3.5,"1 Southbank Boulevard, Melbourne, Victoria 3006 Australia",841,-37.820945,144.9625854,3006
Lemnos Tavern,Greek,4,$$ - $$$,restaurant,4.5,"445 High St, Prahran, Stonnington, Victoria 3181 Australia",113,-37.853043,145.003321,3181
Lentil As Anything St Kilda,Vegan,14,$,restaurant,4.5,"41 Blessington St, St Kilda, Port Phillip, Victoria 3182 Australia",219,-37.8704051,144.980984,3182
L'Hotel Gitan,French,2,$$ - $$$,restaurant,4,"32 Commercial Rd, Prahran, Stonnington, Victoria 3181 Australia",256,-37.8460961,144.9869036,3181
Lindt Chocolate Cafe Southgate Melbourne,Dessert,282,$$ - $$$,restaurant,4,"Shop G09, 3 Southgate Avenue Southgate Retail Precinct, Melbourne, Victoria 3006 Australia",208,-37.825071,144.978682,3006
Little Africa,African,362,$$ - $$$,restaurant,4.5,"358 Victoria St, Melbourne, Victoria 3051 Australia",58,-37.8109577,145.0034545,3051
Little Billy,Australian,258,$$ - $$$,restaurant,4,"Shop W2 195 William St, Melbourne, Victoria 3000 Australia",162,-37.814557,144.957419,3000
Little Black Pig & Sons,Italian,1,$$ - $$$,restaurant,4.5,"48 Burgundy St, Heidelberg, Banyule, Victoria 3084 Australia",196,-37.7563257,145.068666,3084
Little Cupcakes,Dessert,398,$,restaurant,4.5,"Shop 6/181 William St, Goldsborough Lane, Melbourne, Victoria 3000 Australia",127,-37.825071,144.978682,3000
Little Ramen Bar,Japanese,236,$,restaurant,4,"369 Little Collins St, Melbourne, Victoria 3000 Australia",173,-37.816363,144.962794,3000
Little Tommy Tucker Cafe,Cafe,4,$$ - $$$,restaurant,4.5,"432 Centre Rd, Bentleigh, Glen Eira, Victoria 3204 Australia",153,-37.918531,145.038045,3204
Little Vietnam 504,Vietnamese,1,$$ - $$$,restaurant,4.5,"504 Hampton St, Hampton, Bayside, Victoria 3188 Australia",145,-37.934913,145.00319,3188
Locanda Restaurant & Public Bar,Italian,317,$$ - $$$,restaurant,4,"186 Exhibition St, Melbourne, Victoria 3000 Australia",369,-37.811201,144.9706806,3000
Lolo and Wren,Cafe,436,$$ - $$$,restaurant,4.5,"484 Albion St West Brunswick, Melbourne, Victoria Australia",84,-37.7578899,144.9384136,3055
Longrain,Thai,28,$$ - $$$,restaurant,4.5,"44 Little Bourke St, Melbourne, Victoria 3000 Australia",1172,-37.81077635,144.9710503,3000
Lord Cardigan,Australian,278,$$ - $$$,restaurant,4.5,"59 Cardigan Pl, Melbourne, Victoria 3206 Australia",114,-37.8411023,144.9531945,3206
Lucy Liu Kitchen and Bar,Asian,67,$$ - $$$,restaurant,4.5,"23 Oliver Lane, Melbourne, Victoria 3000 Australia",1195,-37.816018,144.969859,3000
Ludlow Bar & Dining Room,Bar,322,$$ - $$$,restaurant,3.5,"6 Riverside Qy, Melbourne, Victoria 3006 Australia",702,-37.8209861,144.9639956,3006
Lune Croissanterie,Bakery,221,$,restaurant,4.5,"161 Collins St Shop 16, Enter via Russell Street, Melbourne, Victoria 3000 Australia",156,-37.815335,144.9690541,3000
Lupino Bistro and Bar,Italian,16,$$ - $$$,restaurant,4.5,"41 Little Collins St, Melbourne, Victoria 3000 Australia",416,-37.812791,144.972385,3000
Maccaroni Trattoria Italiana,Italian,286,$$ - $$$,restaurant,4,"10-16 Manchester Lane, Melbourne, Victoria 3000 Australia",408,-37.815889,144.965984,3000
Madame Brussels,Bar,114,$$ - $$$,restaurant,4,"59-63 Bourke St Level 3, Above Spaghetti Tree Restaurant!, Melbourne, Victoria 3000 Australia",461,-37.81202,144.971518,3000
Magic Mountain Saloon,Thai,148,$$ - $$$,restaurant,4,"62 Little Collins St, Melbourne, Victoria 3000 Australia",289,-37.81282,144.971441,3000
Maha,Turkish,45,$$$$,restaurant,4.5,"21 Bond St, Melbourne, Victoria 3000 Australia",1702,-37.818209,144.962643,3000
Mahn Doo,Korean,169,$$ - $$$,restaurant,4.5,"365 La Trobe St, Melbourne, Victoria 3000 Australia",119,-37.8112731,144.9587623,3000
Mamak,Malaysian,116,$,restaurant,4,"366 Lonsdale St, Melbourne, Victoria 3000 Australia",514,-37.8123114,144.9615654,3000
Mamasita,Mexican,135,$$ - $$$,restaurant,4,"11 Collins St, Melbourne, Victoria 3000 Australia",1307,-37.81376445,144.9734674,3000
Manchester Press,Cafe,84,$$ - $$$,restaurant,4.5,"8 Rankins Lane, Melbourne, Victoria 3000 Australia",500,-37.813903,144.962142,3000
Marion Wine Bar,Bar,8,$$ - $$$,restaurant,4.5,"53 Gertrude St, Fitzroy, Yarra, Victoria 3065 Australia",145,-37.8054823,144.9759358,3065
Marios Cafe,Italian,19,$$ - $$$,restaurant,4,"303 Brunswick St, Fitzroy, Yarra, Victoria 3065 Australia",225,-37.7979683,144.978375,3065
Massi,Italian,320,$$ - $$$,restaurant,4.5,"445 Little Collins St, Melbourne, Victoria 3000 Australia",83,-37.817137,144.960121,3000
Matteo's,Australian,1,$$$$,restaurant,4.5,"533 Brunswick St Melbourne, North Fitzroy, Yarra, Victoria 3068 Australia",378,-37.7911674,144.9794716,3068
Max Bar Restaurant,Italian,63,$$ - $$$,restaurant,4,"54 - 58 Hardware Lane, Melbourne, Victoria 3000 Australia",1405,-37.813374,144.961248,3000
Meatmaiden,Steakhouse,204,$$ - $$$,restaurant,4,"195 Little Collins St Basement, Melbourne, Victoria 3000 Australia",344,-37.8141094,144.9677371,3000
Mediterraneo Charcoal Restaurant,Steakhouse,3,$$ - $$$,restaurant,4.5,"116 Bridport St, Albert Park, Port Phillip, Victoria 3206 Australia",171,-37.84027865,144.9563687,3206
Melba Restaurant,Indian,125,$$$$,restaurant,4,"1 Southgate Ave The Langham, Southbank, Melbourne, Victoria 3006 Australia",1306,-37.823364,144.95633,3006
Melbourne Hwaro Korean Barbecue,Korean,285,$$ - $$$,restaurant,4,"Level Ground 562 Little Bourke St, Melbourne, Victoria 3000 Australia",141,-37.815159,144.955703,3000
Mercadante Woodfired Pizzeria,Italian,175,$$ - $$$,restaurant,4.5,"Shop 123, Lygon St Carlton, Melbourne, Victoria 3053 Australia",365,-37.804137,144.9661545,3053
Merchant,Italian,182,$$ - $$$,restaurant,4,"495 Collins St, Melbourne, Victoria 3000 Australia",331,-37.8185522,144.9579495,3000
Mesh - Crown Promenade,Australian,378,$$ - $$$,restaurant,4,"8 Whiteman Street, Southbank 8 Whiteman St, Southbank, Melbourne, Victoria 3006 Australia",432,-37.8242677,144.9577541,3006
Metro Burger,Australian,100,$,restaurant,4.5,"12 Degraves St, Melbourne, Victoria 3000 Australia",146,-37.8175596,144.9659417,3000
Mezzo,Italian,225,$$ - $$$,restaurant,4,"35 Little Bourke St, Melbourne, Victoria 3000 Australia",324,-37.81355815,144.961973,3000
Milk the Cow,Bar,2,$$ - $$$,restaurant,4.5,"U 1 157 Fitzroy St, St Kilda, Port Phillip, Victoria 3182 Australia",338,-37.8587349,144.9794801,3182
Milk the Cow,Bar,161,$$ - $$$,restaurant,4.5,"323 Lygon St, Melbourne, Victoria 3053 Australia",152,-37.7977805,144.9672295,3053
Mister and Miss Cafe,Cafe,1,$$ - $$$,restaurant,4,"Mont Albert Victoria 711-713 Whitehorse Rd, Mont Albert, Whitehorse, Victoria 3127 Australia",199,-37.815617,145.105808,3127
Mister Bianco,Italian,3,$$ - $$$,restaurant,4,"285 High St, Kew, Boroondara, Victoria 3101 Australia",214,-37.8075261,145.0289366,3101
Mitre Tavern Steakhouse & Grill,Steakhouse,151,$$ - $$$,restaurant,4,"5 Bank Pl Level 1, Melbourne, Victoria 3000 Australia",424,-37.81693585,144.9606592,3000
Miyako Japanese Cuisine & Teppanyaki,Japanese,250,$$ - $$$,restaurant,4,"3 Southgate Ave Upper Level, Shop UR2, Southgate Arts & Leisure Precinct, Melbourne, Victoria 3006 Australia",323,-37.820228,144.966524,3006
Mjolner,European,195,$$$$,restaurant,4.5,"106 Hardware St, Melbourne, Victoria 3000 Australia",136,-37.8121322,144.9606841,3000
Moroccan Soup Bar,Moroccan,2,$,restaurant,4.5,"183 St Georges Rd, North Fitzroy, Yarra, Victoria 3068 Australia",218,-37.7848639,144.9823189,3068
MoVida Aqui,Spanish,81,$$ - $$$,restaurant,4.5,"Nab Building, 1 500 Bourke St NAB Building, Melbourne, Victoria 3000 Australia",752,-37.815262,144.958935,3000
Movida Bar de Tapas,Spanish,72,$$ - $$$,restaurant,4.5,"1 Hosier Lane, Melbourne, Victoria 3000 Australia",2760,-37.8165887,144.9691595,3000
MoVida Next Door,Spanish,73,$$ - $$$,restaurant,4.5,"164 Flinders St, Melbourne, Victoria 3000 Australia",528,-37.816756,144.969114,3000
Mr Huang Jin,Chinese,227,$$ - $$$,restaurant,4.5,"24 Katherine Pl Plaza Level, Rialto Towers, Melbourne, Victoria 3000 Australia",96,-37.820306,144.956609,3000
Mr. Hive,Australian,289,$$ - $$$,restaurant,4,"Level 1, Crown Metropol 8 Whiteman Street, Melbourne, Victoria Australia",456,-37.82333165,144.9582858,3006
Mr. Miyagi,Japanese,2,$$ - $$$,restaurant,4,"99 Chapel St, Windsor, Stonnington, Victoria 3181 Australia",401,-37.854224,144.992719,3181
Munich Brauhaus,German,304,$$ - $$$,restaurant,3.5,"45 South Wharf Promenade, Melbourne, Victoria Australia",1034,-37.8240594,144.9507459,3006
Naked for Satan,Bar,5,$$ - $$$,restaurant,4.5,"285 Brunswick St, Fitzroy, Yarra, Victoria 3065 Australia",1244,-37.7988408,144.9782369,3065
Naked in the Sky,Bar,20,$$ - $$$,restaurant,4.5,"285 Brunswick St, Fitzroy, Yarra, Victoria 3065 Australia",130,-37.7988408,144.9782369,3065
Nevsky Russian Restaurant,Russian,1,$$ - $$$,restaurant,4.5,"476 Glen Huntly Rd, Elsternwick, Glen Eira, Victoria 3185 Australia",160,-37.8852786,145.0078014,3185
Nine Elephants,Thai,279,$$ - $$$,restaurant,4.5,"67 Village St Docklands, Melbourne, Victoria 3008 Australia",145,-37.8185154,144.948856,3008
Nirankar Restaurant,Nepalese,248,$$ - $$$,restaurant,4.5,"174-176 Queen St, Melbourne, Victoria 3000 Australia",189,-37.8143272,144.9606596,3000
No35,Australian,104,$$$$,restaurant,4,"35/25 Collins St Level 35, Melbourne, Victoria 3000 Australia",929,-37.813895,144.97303,3000
Nobu Melbourne,Japanese,178,$$$$,restaurant,4,"Crown Entertainment Complex 8 Whiteman St, Melbourne, Victoria 3006 Australia",1462,-37.82333165,144.9582858,3006
Noir,French,3,$$$$,restaurant,4.5,"175 Swan St, Richmond, Yarra, Victoria 3121 Australia",234,-37.82595286,145.0012977,3121
Oak & Vine,Australian,276,$$ - $$$,restaurant,4.5,"60 Market St, Melbourne, Victoria 3000 Australia",108,-37.81776725,144.9608608,3000
Om Nom,Dessert,83,$$$$,restaurant,4,"187 Flinders Lane Adelphi Hotel, Melbourne, Victoria 3000 Australia",545,-37.816227,144.968294,3000
Ombra Salumi Bar,Italian,158,$$ - $$$,restaurant,4.5,"76 Bourke St, Melbourne, Victoria 3000 Australia",230,-37.81189173,144.9707001,3000
One Eleven,Australian,313,$$$$,restaurant,4,"111 Spring Street The Hotel Windsor, Melbourne, Victoria 3000 Australia",175,-37.8094185,144.9720826,3000
Operator 25,Cafe,22,$$ - $$$,restaurant,4.5,"25 Wills St, Melbourne, Victoria 3000 Australia",447,-37.8107145,144.9571233,3000
Oriental Spoon,Korean,295,$$ - $$$,restaurant,4,"254 La Trobe St, Melbourne, Victoria 3000 Australia",217,-37.809999,144.961488,3000
Oriental Tea House,Chinese,255,$$ - $$$,restaurant,4,"378 Little Collins St, Melbourne, Victoria 3000 Australia",221,-37.815569,144.962051,3000
Osteria Ilaria,Italian,120,$$ - $$$,restaurant,4.5,"367 Little Bourke St, Melbourne, Victoria 3000 Australia",248,-37.81364356,144.9616754,3000
P.J.O'Brien's Irish Pub,Bar,92,$$ - $$$,restaurant,4,"Southgate Southgate Restaurant & Shopping Precinct, Melbourne, Victoria 3006 Australia",544,-35.346234,149.085824,3006
Pacinos Italian Family Restaurant,Italian,1,$$ - $$$,restaurant,4.5,"300 Epsom Rd 300-320 Epsom Road, Ascot Vale, Moonee Valley, Victoria 3031 Australia",240,-37.776967,144.905092,3031
Palermo,Argentinian,166,$$ - $$$,restaurant,4.5,"401 Little Bourke St, Melbourne, Victoria 3000 Australia",143,-37.81383523,144.9610076,3000
Papa Gino's Pizza Restaurant,Italian,209,$$ - $$$,restaurant,4,"Lygon Street Carlton, Melbourne, Victoria 3053 Australia",465,-37.7993535,144.9672439,3053
Paper Plate Restaurant,Vietnamese,12,$$ - $$$,restaurant,4.5,"318 Bridge Rd, Richmond, Yarra, Victoria 3121 Australia",65,-37.81896423,145.0018928,3121
Paris Go Bistro,French,307,$$ - $$$,restaurant,4,"116 Rathdowne St, Melbourne, Victoria 3053 Australia",169,-37.79695645,144.9708681,3053
Park Street Pasta & Wine,Italian,443,$$ - $$$,restaurant,4.5,"268 Park St South Melbourne, Melbourne, Victoria 3205 Australia",91,-37.78053894,144.9795306,3205
Pascale Bar & Grill,European,284,$$$$,restaurant,4.5,"133 Russell St Level 1, Melbourne, Victoria 3000 Australia",161,-37.81349168,144.9681383,3000
pastuso,Peruvian,78,$$ - $$$,restaurant,4.5,"19 Acdc Lane Off Flinders Lane Between Collins St and Exhibition St, Melbourne, Victoria 3000 Australia",857,-37.814338,144.970623,3000
Patricia Coffee Brewers,Cafe,27,$,restaurant,4.5,"493-495 Little Bourke St, Melbourne, Victoria 3000 Australia",212,-37.814614,144.958226,3000
Peko Peko,Chinese,223,$,restaurant,4.5,"190 Wells St, Melbourne, Victoria 3205 Australia",208,-37.831928,144.969691,3205
Pellegrini's Espresso Bar,Italian,127,$,restaurant,4,"66 Bourke St, Melbourne, Victoria 3000 Australia",1067,-37.81180884,144.9709896,3000
Phancy Cafe,Cafe,340,$$ - $$$,restaurant,4.5,"408 Queen St, Melbourne, Victoria 3000 Australia",93,-37.8091311,144.9582371,3000
Philhellene,Greek,3,$$ - $$$,restaurant,4,"551-553 Mount Alexander Rd, Moonee Ponds, Moonee Valley, Victoria 3039 Australia",187,-37.76942855,144.9253567,3039
Philippe,French,103,$$$$,restaurant,4.5,"115 Collins St, Melbourne, Victoria 3000 Australia",261,-37.8147372,144.9700774,3000
Pho Bo Ga Mekong,Vietnamese,269,$,restaurant,4,"241 Swanston St, Melbourne, Victoria 3000 Australia",448,-37.81243229,144.9649055,3000
Piccolo Mondo,Italian,47,$$ - $$$,restaurant,4.5,"240 Lygon St Carlton, Melbourne, Victoria 3053 Australia",735,-37.8015651,144.9671352,3053
Pidapipo Gelateria,Dessert,11,$,restaurant,4.5,"299 Lygon St, Carlton, Melbourne, Victoria 3053 Australia",433,-37.7983068,144.9671467,3053
Pier Port Melbourne,Bar,220,$$ - $$$,restaurant,4.5,"1 Bay St, Melbourne, Victoria 3207 Australia",189,-37.84280595,144.9380807,3207
Pilgrim Bar,Bar,325,$$ - $$$,restaurant,4,"Vaults 15-19 Federation Wharf Federation Square, Melbourne, Victoria 3000 Australia",175,-37.819267,144.962048,3000
Pinchy's,Australian,198,$$ - $$$,restaurant,4.5,"Level 1, 200 Bourke St Midcity Arcade, Melbourne, Victoria 3000 Australia",146,-37.812786,144.967407,3000
Plain Sailing,Cafe,1,$$ - $$$,restaurant,4.5,"144 Ormond Rd, Elwood, Port Phillip, Victoria 3184 Australia",85,-37.8863787,144.9889713,3184
Plus 5,Italian,359,$$ - $$$,restaurant,4,"37 South Wharf Promenade, Melbourne, Victoria 3008 Australia",233,-37.824003,144.948479,3008
Ponyfish Island,Bar,115,$$ - $$$,restaurant,4,"Underneath Evan Walker Pedestrian Bridge Southbank, Melbourne, Victoria 3006 Australia",479,-37.825071,144.978682,3006
Pope Joan,Cafe,354,$$ - $$$,restaurant,4,"45 Collins St, Melbourne, Victoria 3000 Australia",170,-37.8142466,144.972547,3000
Postmaster Hotel,Bar,2,$$ - $$$,restaurant,4,"186 High St, Kew, Boroondara, Victoria 3101 Australia",185,-37.8075261,145.0289366,3101
Pretty Boy Italian Steakhouse,Italian,348,$$ - $$$,restaurant,4.5,"399 Little Lonsdale Street Level 1, Melbourne, Victoria 3000 Australia",73,-37.811922,144.96009,3000
Pud Thai vs Pho,Thai,347,$,restaurant,4.5,"60 Siddeley St, Melbourne, Victoria 3008 Australia",103,-37.8226901,144.9525252,3008
Punch Lane,European,34,$$ - $$$,restaurant,4.5,"43 Little Bourke St, Melbourne, Victoria 3000 Australia",667,-37.8135602,144.9619658,3000
Pure South Dining,Australian,177,$$$$,restaurant,4,"3 Southgate Ave Southbank, Melbourne, Victoria 3006 Australia",927,-37.8201768,144.966393,3006
QT Kitchen,Vietnamese,1,$$ - $$$,restaurant,4.5,"12 High St, Glen Iris, Stonnington, Victoria 3146 Australia",71,-37.8600011,145.0591488,3146
Radii Restaurant & Bar,European,384,$$$$,restaurant,4,"1 Parliament Pl, Melbourne, Victoria 3002 Australia",211,-37.8112924,144.9754803,3002
Radio Mexico Taqueria & Bar,Mexican,15,$$ - $$$,restaurant,4,"11-13 Carlisle St, St Kilda, Port Phillip, Victoria 3182 Australia",288,-37.8670378,144.9793105,3182
Railway Hotel,Bar,52,$$ - $$$,restaurant,4.5,"280 Ferrars St, Melbourne, Victoria 3205 Australia",267,-37.8353661,144.9557889,3205
Rare Steakhouse Downtown,Steakhouse,60,$$ - $$$,restaurant,4.5,"42-44 King St, Melbourne, Victoria 3000 Australia",516,-37.819162,144.95733,3000
Rare Steakhouse Midtown,Steakhouse,51,$$ - $$$,restaurant,4.5,"12 Goldie Pl, Melbourne, Victoria 3000 Australia",344,-37.813393,144.960782,3000
Rare Steakhouse Uptown,Steakhouse,40,$$ - $$$,restaurant,4.5,"61 Little Collins St Shop 6, Melbourne, Victoria 3000 Australia",755,-37.812995,144.971686,3000
Red Emperor Chinese Restaurant,Chinese,165,$$ - $$$,restaurant,4,"3 Southgate Ave M10/ Mid Level, Melbourne, Victoria 3006 Australia",534,-37.820228,144.966524,3006
Red Pepper Indian Restaurant,Indian,254,$$ - $$$,restaurant,4,"14 Bourke St, Melbourne, Victoria 3000 Australia",408,-37.81137785,144.9724949,3000
Red Spice Road,Thai,31,$$ - $$$,restaurant,4.5,"141 Queen St, Melbourne, Victoria 3000 Australia",1737,-37.815479,144.960626,3000
Republica,Australian,11,$$ - $$$,restaurant,4,"10-18 Jacka Boulevard St. Kilda Sea Baths, St Kilda, Port Phillip, Victoria 3182 Australia",492,-37.8656234,144.9720318,3182
Restaurant 1903,Australian,245,$$ - $$$,restaurant,4.5,"44 Spencer St Very Close to Southern Cross Railway Station, Melbourne, Victoria 3000 Australia",155,-37.813046,144.962398,3000
Ricardo's Trattoria,Italian,1,$$ - $$$,restaurant,4.5,"99 Dundas Pl, Albert Park, Port Phillip, Victoria 3206 Australia",176,-37.84129905,144.9552288,3206
Rice Paper,Vietnamese,192,$,restaurant,4,"245 Swanston St, Melbourne, Victoria 3000 Australia",287,-37.81239601,144.9648885,3000
Rice Paper Scissors,Thai,6,$$ - $$$,restaurant,4.5,"15 Hardware Lane, Melbourne, Victoria 3000 Australia",2701,-37.8142684,144.961446,3000
Richmond Oyster,Australian,6,$$ - $$$,restaurant,4.5,"437 Church St, Richmond, Yarra, Victoria 3121 Australia",326,-37.82617153,144.9980071,3121
Riverland,Bar,375,$$ - $$$,restaurant,4,"Vaults 1-9 Federation Wharf Federation Square, Melbourne, Victoria 3000 Australia",317,-37.819267,144.962048,3000
Rock Paper Scissors,Cafe,260,$$ - $$$,restaurant,4.5,"136-138 Rouse St, Melbourne, Victoria 3207 Australia",76,-37.8421836,144.9398977,3207
Rocket Burger & Fries,American,321,$,restaurant,4.5,"Cnr Flinders & Elizabeth Streets 26 Elizabeth St, Melbourne, Victoria 3000 Australia",131,-37.8176558,144.9650004,3000
Rockpool Bar & Grill,Steakhouse,189,$$$$,restaurant,4,"Crown Complex Southbank, Melbourne, Victoria 3006 Australia",1961,-37.8250957,144.9583336,3006
Rococo,Italian,6,$$ - $$$,restaurant,4,"87-91 Acland St St.Kilda, St Kilda, Port Phillip, Victoria 3182 Australia",973,-37.867018,144.9782333,3182
Rosa's Canteen,Italian,138,$$ - $$$,restaurant,4.5,"Cnr Little Bourke & Thomson St Level 1, Melbourne, Victoria 3000 Australia",154,-37.813664,144.96295,3000
Rosco's at Chevron Cafe Bar,Italian,118,$$ - $$$,restaurant,4.5,"14/519 St Kilda Rd, Melbourne, Victoria 3004 Australia",262,-37.845582,144.979414,3004
Rosetta,Italian,224,$$$$,restaurant,4,"Crown Entertainment Complex 8 Whiteman St Crown Complex, Melbourne, Victoria 3006 Australia",996,-37.824314,144.956852,3006
Roule Galette Melbourne,French,8,$,restaurant,4.5,"241 Flinders Lane Shop 1, Melbourne, Victoria 3000 Australia",604,-37.816795,144.966266,3000
Royal Stacks,American,256,$,restaurant,4,"470 Collins St, Melbourne, Victoria 3000 Australia",169,-37.8175805,144.9585131,3000
Rubiras,Australian,174,$$ - $$$,restaurant,4.5,"192 Station St Swallows Hotel, Melbourne, Victoria 3207 Australia",218,-37.8328036,144.9456317,3207
Rumi Brunswick,Lebanese,1,$$ - $$$,restaurant,4.5,"116 Lygon St, Brunswick East, Moreland, Victoria 3057 Australia",265,-37.7748659,144.971281,3057
Ruyi Modern Chinese,Chinese,25,$$ - $$$,restaurant,4.5,"16 Liverpool St, Melbourne, Victoria 3000 Australia",377,-37.81104575,144.9715727,3000
Saint & Rogue,Bar,330,$$ - $$$,restaurant,4,"582 Little Collins St, Melbourne, Victoria 3000 Australia",127,-37.8174116,144.9553584,3000
Saint Crispin,Australian,4,$$$$,restaurant,4,"300 Smith St, Collingwood, Yarra, Victoria 3066 Australia",332,-37.800233,144.984221,3066
Sake Restaurant & Bar,Japanese,180,$$ - $$$,restaurant,4,"100 St Kilda Rd Hamer Hall, Arts Centre, Melbourne, Victoria 3004 Australia",725,-37.819889,144.967983,3004
Sake Restaurant & Bar,Japanese,389,$$ - $$$,restaurant,4,"121 Flinders Lane, Melbourne, Victoria 3000 Australia",181,-37.81566215,144.9704786,3000
Sakura Kaiten,Japanese,361,$$ - $$$,restaurant,4.5,"60 Little Collins St, Melbourne, Victoria 3000 Australia",132,-37.8126601,144.9720083,3000
Sally's Kitchen and Winebar,Australian,131,$$ - $$$,restaurant,4.5,"115 Little Lonsdale St, Melbourne, Victoria 3000 Australia",232,-37.809393,144.968482,3000
Salona Restaurant,Greek,351,$$ - $$$,restaurant,4.5,"260A Swan Street, Richmond, Melbourne, Victoria 3121 Australia",126,-37.8259676,144.9990013,3121
San Telmo,Steakhouse,66,$$ - $$$,restaurant,4.5,"14 Meyers Pl, Melbourne, Victoria 3000 Australia",709,-37.812289,144.972348,3000
Sapa Hills Restaurant,Vietnamese,2,$$ - $$$,restaurant,4.5,"112 Hopkins St, Footscray, Maribyrnong, Victoria 3011 Australia",196,-37.799808,144.90162,3011
Saporito Cafe Bar & Grill,Cafe,352,$$ - $$$,restaurant,4.5,"12-16 Kavanagh St, Melbourne, Victoria 3006 Australia",71,-37.8245864,144.9637446,3006
Saporito Taquito,Mexican,264,$$ - $$$,restaurant,4.5,"163 Inkerman St Unit 211, Melbourne, Victoria 3182 Australia",96,-37.8640947,144.981786,3182
Saxe,Bar,379,$$ - $$$,restaurant,4.5,"211 Queen St, Melbourne, Victoria 3000 Australia",52,-37.81391,144.959915,3000
Scopri,Italian,1,$$ - $$$,restaurant,5,"191 Nicholson St Carlton, Melbourne, Victoria 3053 Australia",1049,-37.795569,144.975048,3053
Scugnizzo,Italian,199,$$ - $$$,restaurant,4.5,"558 Little Bourke St Entrance via Merritts place, Melbourne, Victoria 3000 Australia",180,-37.825071,144.978682,3000
seamstress,Asian,36,$$ - $$$,restaurant,4.5,"113 Lonsdale St, Melbourne, Victoria 3000 Australia",501,-37.81051,144.968961,3000
Seasons Provedore,Italian,102,$$ - $$$,restaurant,4.5,"199 Lygon St, Melbourne, Victoria 3053 Australia",494,-37.8009612,144.9666703,3053
Seedling Cafe,Cafe,238,$$ - $$$,restaurant,4.5,"349 Little Collins St, Melbourne, Victoria 3000 Australia",75,-37.815458,144.963089,3000
Self Preservation,Italian,230,$$ - $$$,restaurant,4,"70 Bourke St, Melbourne, Victoria 3000 Australia",207,-37.811842,144.9708738,3000
Seven Seeds,Australian,46,$$ - $$$,restaurant,4.5,"114 Berkley Street Carlton, Melbourne, Victoria Australia",381,-38.0607656,145.4401026,3053
Sezar,American,18,$$ - $$$,restaurant,4.5,"6 Melbourne Pl, Melbourne, Victoria 3000 Australia",1024,-37.8134515,144.9689196,3000
Shakahari too,Australian,355,$$ - $$$,restaurant,4.5,"225 Clarendon St, Melbourne, Victoria 3205 Australia",89,-37.8296393,144.9591041,3205
Shakahari Vegetarian Restaurant,Vegetarian,231,$$ - $$$,restaurant,4.5,"201-203 Faraday St, Melbourne, Victoria 3053 Australia",221,-37.7989611,144.9678184,3053
ShanDong MaMa,Chinese,271,$,restaurant,4,"200 Bourke St Mid City Centre, Shop 7, Melbourne, Victoria 3000 Australia",220,-37.8123424,144.9672583,3000
ShanDong MaMa mini,Chinese,302,$,restaurant,4.5,"5 Centre Pl, Melbourne, Victoria 3000 Australia",63,-37.816611,144.965533,3000
Shanghai Street,Chinese,121,$,restaurant,4,"342 Little Bourke St, Melbourne, Victoria 3000 Australia",595,-37.81327958,144.9624226,3000
Shark Fin Inn,Chinese,406,$$ - $$$,restaurant,3.5,"50 Little Bourke St, Melbourne, Victoria 3000 Australia",586,-37.81082773,144.9708717,3000
Shoya,Japanese,310,$$$$,restaurant,4,"25 Market Lane, Melbourne, Victoria 3000 Australia",216,-37.811753,144.969119,3000
Shujinko,Japanese,261,$,restaurant,4,"225 Russell St, Melbourne, Victoria 3000 Australia",142,-37.81131989,144.9671699,3000
Simply Spanish,Spanish,222,$$ - $$$,restaurant,4,"116 Cecil St, Melbourne, Victoria 3205 Australia",251,-37.86384675,144.9013208,3205
Simply Spanish QVM,Spanish,215,$$ - $$$,restaurant,4.5,"513 Elizabeth St, Melbourne, Victoria 3000 Australia",210,-37.8068913,144.9595173,3000
Sir Charles,Cafe,14,$$ - $$$,restaurant,4.5,"121 Johnston St, Fitzroy, Yarra, Victoria 3065 Australia",133,-37.7982584,144.9789257,3065
Sister of Soul,Cafe,9,$$ - $$$,restaurant,4,"73 Acland St, St Kilda, Port Phillip, Victoria 3182 Australia",402,-37.8677069,144.9787835,3182
Smith and Daughters,Vegan,9,$$ - $$$,restaurant,4.5,"175 Brunswick St, Fitzroy, Yarra, Victoria 3065 Australia",388,-37.802243,144.977606,3065
Sons of Mary,Australian,2,$$ - $$$,restaurant,4.5,"14 Spink St, Brighton, Bayside, Victoria 3186 Australia",233,-37.897926,145.004379,3186
Sosta Ristorante,Italian,283,$$ - $$$,restaurant,4.5,"12 Errol Street, Melbourne, Victoria 3051 Australia",183,-37.8048261,144.9495684,3051
Spaghetti Tree,Italian,171,$$ - $$$,restaurant,4,"59 Bourke St, Melbourne, Victoria 3000 Australia",786,-37.8120271,144.9715217,3000
Spice Temple,Chinese,200,$$$$,restaurant,4,"Crown Entertainment Complex 8 Whiteman St Crown Complex, Southbank, Melbourne, Victoria 3006 Australia",1311,-37.824314,144.956852,3006
Spicy Korea,Korean,296,$,restaurant,4.5,"U 1 601 Little Collins St, Melbourne, Victoria 3000 Australia",72,-37.81801975,144.9549152,3000
SPQR Pizzeria,Italian,197,$$ - $$$,restaurant,4.5,"26 Liverpool Street, Melbourne 3000, Melbourne, Victoria 3000 Australia",194,-37.7813353,144.9792968,3000
Spring Street Grocer Cafe,Cafe,305,$$ - $$$,restaurant,4.5,"157 Spring St, Melbourne, Victoria 3000 Australia",96,-37.811033,144.972654,3000
Square & Compass,Cafe,290,$$ - $$$,restaurant,4.5,"222 Clarendon Street, Melbourne, Victoria Australia",113,-37.8096886,144.9839138,3205
Squires Loft South Yarra,Australian,93,$$ - $$$,restaurant,4.5,"166 Toorak Rd, Melbourne, Victoria 3141 Australia",383,-37.8392321,144.9926191,3141
St Ali Coffee Roasters,Cafe,111,$$ - $$$,restaurant,4,"12-18 Yarra Pl, Melbourne, Victoria 3205 Australia",632,-37.8313001,144.9603137,3205
St LuJa,Bar,7,$$ - $$$,restaurant,4.5,"9 Fitzroy St, St Kilda, Port Phillip, Victoria 3182 Australia",124,-37.862603,144.973157,3182
Stalactites,Greek,149,$$ - $$$,restaurant,4,"177-183 Lonsdale St, Melbourne, Victoria 3000 Australia",1473,-37.8110551,144.9670923,3000
Station Hotel,Bar,3,$$ - $$$,restaurant,4,"59 Napier St, Footscray, Maribyrnong, Victoria 3011 Australia",352,-37.8045679,144.9015596,3011
Steer Dining Room,Australian,298,$$ - $$$,restaurant,4.5,"15 Claremont St, Melbourne, Victoria 3141 Australia",76,-37.8376295,144.9936822,3141
Straight Outta Saigon,Vietnamese,13,$$ - $$$,restaurant,4.5,"138 Russell Street Ground level, Melbourne, Victoria 3000 Australia",337,-37.813054,144.968449,3000
Straits Cafe Melbourne,Australian,75,$$ - $$$,restaurant,4.5,"Rendezvous Hotel Melbourne 328 Flinders St, Melbourne, Victoria 3000 Australia",262,-37.818345,144.963647,3000
Sud Food and Wine,Italian,56,$$ - $$$,restaurant,4.5,"219 King St, Melbourne, Victoria 3000 Australia",230,-37.815138,144.954872,3000
Sunda,Asian,253,$$ - $$$,restaurant,4.5,"18 Punch lane, Melbourne, Victoria 3000 Australia",111,-37.810476,144.971024,3000
Supernormal,Japanese,53,$$ - $$$,restaurant,4.5,"180 Flinders Lane, Melbourne, Victoria 3000 Australia",1619,-37.8157531,144.9682132,3000
Sushi Hub Swanston,Japanese,196,$,restaurant,4.5,"55 Swanston St, Melbourne, Victoria 3000 Australia",191,-37.81627142,144.9666877,3000
Swaad India's Zest,Indian,3,$$ - $$$,restaurant,4.5,"Shop 9 271-275 Centre Rd, Bentleigh, Glen Eira, Victoria 3204 Australia",81,-37.917311,145.0327,3204
Taxi Kitchen,Australian,76,$$ - $$$,restaurant,4.5,"Level 1, Federation Square, Flinders Street Transport Hotel, Melbourne, Victoria 3000 Australia",953,-37.8196306,144.9586188,3000
Tazio,Italian,201,$$ - $$$,restaurant,4,"91 Flinders Lane, Melbourne, Victoria 3000 Australia",291,-37.8153051,144.9712286,3000
Teatro,Italian,206,$$ - $$$,restaurant,4,"Southbank Promenade Tenancy A Hamer Hall, Melbourne, Victoria 3006 Australia",510,-37.8199197,144.9664768,3006
Ten Square Cafe,Cafe,214,$$ - $$$,restaurant,5,"120 Hardware St, Melbourne, Victoria 3000 Australia",64,-37.811955,144.9605534,3000
Terra Rossa Restaurant & Bar,Italian,137,$$ - $$$,restaurant,4,"87 Flinders Lane, Melbourne, Victoria 3000 Australia",458,-37.815272,144.971372,3000
Thai city,Thai,438,$$ - $$$,restaurant,4.5,"124 Lygon Street Carlton, Melbourne, Victoria 3000 Australia",72,-37.8041393,144.9665474,3000
The  European,European,97,$$ - $$$,restaurant,4,"161 Spring St, Melbourne, Victoria 3000 Australia",951,-37.8108753,144.9726217,3000
The Abyssinian,Ethiopian,187,$$ - $$$,restaurant,4.5,"277 Racecourse Rd, Melbourne, Victoria 3031 Australia",113,-37.7886509,144.9316967,3031
The Atlantic Restaurant,Seafood,207,$$$$,restaurant,4,"Crown Entertainment Complex 8 Whiteman St Crown Entertainment Complex, Melbourne, Victoria 3006 Australia",1570,-37.824314,144.956852,3006
The Bank on Collins,Australian,98,$$ - $$$,restaurant,4,"394 Collins St, Melbourne, Victoria 3000 Australia",393,-37.81677335,144.9611807,3000
The Boatbuilders Yard,Australian,211,$$ - $$$,restaurant,4,"23 South Wharf Prom, Melbourne, Victoria 3006 Australia",680,-37.823648,144.955935,3006
The Bond Store,Australian,280,$$ - $$$,restaurant,4.5,"1 Riverside Qy, Melbourne, Victoria 3006 Australia",154,-37.8217545,144.9639586,3006
The Breslin Bar & Grill,Bar,179,$$ - $$$,restaurant,4,"2 Southbank Bvd, Melbourne, Victoria 3006 Australia",650,-37.8226714,144.9641243,3006
The Crafty Squire,Bar,299,$$ - $$$,restaurant,4,"127 Russell St, Melbourne, Victoria 3000 Australia",363,-37.8136466,144.9682102,3000
The Crane Restaurant,Chinese,416,$$ - $$$,restaurant,4,"212 Little Bourke St, Melbourne, Victoria 3000 Australia",194,-37.81214414,144.9662948,3000
The Crux & Co,Cafe,331,$$ - $$$,restaurant,4.5,"35 Albert Rd G01, Melbourne, Victoria 3004 Australia",100,-37.825071,144.978682,3004
The Essence,Australian,369,$$ - $$$,restaurant,4,"Corner Exhibition & Lonsdale Streets Melbourne Marriott Hotel, Melbourne, Victoria 3000 Australia",240,-37.814338,144.970623,3000
The Fitz Cafe & Rooftop,Australian,11,$$ - $$$,restaurant,4.5,"347 Brunswick St, Fitzroy, Yarra, Victoria 3065 Australia",257,-37.7968516,144.9785347,3065
The French Brasserie,French,19,$$$$,restaurant,4.5,"2 Malthouse Lane, Melbourne, Victoria 3000 Australia",721,-37.8154393,144.9715781,3000
The General Assembly,Bar,273,$$ - $$$,restaurant,4,"29 South Wharf Prom, Melbourne, Victoria 3006 Australia",269,-37.824003,144.948479,3006
The Grain Store,European,39,$$ - $$$,restaurant,4.5,"Ground Floor 517 Flinders Lane, Melbourne, Victoria 3000 Australia",1248,-37.8196893,144.9565546,3000
The Hardware Club,Italian,218,$$ - $$$,restaurant,5,"43 Hardware Lane, Melbourne, Victoria 3000 Australia",57,-37.8134633,144.9610875,3000
The Hardware Societe,Australian,35,$$ - $$$,restaurant,4.5,"10 Katherine Pl, Melbourne, Victoria 3000 Australia",1879,-37.8200942,144.9566093,3000
The Hof Downtown,Bar,383,$$ - $$$,restaurant,4,"737 Bourke St Corner of Bourke and Village Street, Melbourne, Victoria 3008 Australia",160,-37.813664,144.96295,3008
The Irish Times Pub,Bar,353,$$ - $$$,restaurant,4,"427 Little Collins St, Melbourne, Victoria 3000 Australia",270,-37.816247,144.960531,3000
The Jazz Corner Cafe,Cafe,203,$$ - $$$,restaurant,4,"350 William St located within The Jazz Corner Hotel - lobby cafe and mezzanine restaurant, Melbourne, Victoria 3000 Australia",305,-37.811274,144.956473,3000
The Kettle Black,Cafe,140,$$ - $$$,restaurant,4,"50 Albert Rd, Melbourne, Victoria 3205 Australia",450,-37.8341251,144.9713427,3205
The Lady Of St Kilda,Italian,17,$$ - $$$,restaurant,4.5,"204 Barkly St Corner Smith Street, St Kilda, Port Phillip, Victoria 3182 Australia",53,-37.864302,144.982798,3182
The League of Honest Coffee,Cafe,386,$$ - $$$,restaurant,4.5,"8 Exploration Lane, Melbourne, Victoria 3000 Australia",94,-37.8092206,144.9684121,3000
The Louden Kitchen & Grill,Australian,387,$$ - $$$,restaurant,4,"265 Little Bourke St, Melbourne, Victoria 3000 Australia",157,-37.81268585,144.9649547,3000
The Lui Bar,Bar,113,$$$$,restaurant,4.5,"Rialto L 55 525 Collins St, Melbourne, Victoria 3000 Australia",463,-37.818505,144.957279,3000
The Meat & Wine Co Hawthorn East,Australian,3,$$ - $$$,restaurant,4,"482 Riversdale Rd, Hawthorn, Boroondara, Victoria 3123 Australia",417,-37.831451,145.055926,3123
The Meat & Wine Co Southbank,Australian,112,$$ - $$$,restaurant,4,"3 Freshwater Pl 3 Queensbridge Street, Melbourne, Victoria 3006 Australia",1478,-37.82487,144.960557,3006
The Meatball and Wine Bar,Italian,132,$$ - $$$,restaurant,4,"135 Flinders Lane, Melbourne, Victoria 3000 Australia",699,-37.815681,144.970136,3000
The Moat,Italian,365,$$ - $$$,restaurant,4,"176 Little Lonsdale St, Melbourne, Victoria 3000 Australia",123,-37.8101765,144.9652219,3000
The Olive Tree,European,186,$$ - $$$,restaurant,4.5,"19 Park St, Melbourne, Victoria 3205 Australia",180,-37.8330238,144.969881,3205
The Pancake Parlour,American,411,$$ - $$$,restaurant,4,"Centrepoint Arcade, Bourke Street Mall Centrepoint Arcade, Bourke Street Mall, Down the Escalators, Between Sportsgirl and Jetty Surf, Melbourne, Victoria 3000 Australia",323,-37.813455,144.966377,3000
The Point Restaurant,Australian,4,$$$$,restaurant,4.5,"Aquatic Drive Albert Park Lake, Albert Park, Port Phillip, Victoria 3206 Australia",242,-37.8405219,144.9667418,3206
The Quarter,Australian,94,$$ - $$$,restaurant,4,"27 Degraves St, Melbourne, Victoria 3000 Australia",745,-37.817043,144.965478,3000
The Railway Club Hotel Steakhouse,Australian,24,$$ - $$$,restaurant,4.5,"107 Raglan St Port Melbourne, Melbourne, Victoria 3207 Australia",680,-37.75119102,145.0204415,3207
The Recreation bistro x bottleshop,Australian,143,$$ - $$$,restaurant,4.5,"162-170 Queens Parade, Fitzroy North, Melbourne, Victoria 3068 Australia",109,-37.7904684,144.9866994,3068
The Sherlock Holmes,British,64,$$ - $$$,restaurant,4.5,"415 Collins St, Melbourne, Victoria 3000 Australia",344,-37.8173101,144.9608666,3000
The Tippler & Co,Italian,336,$$ - $$$,restaurant,4.5,"58 Wellington Pde, Melbourne, Victoria 3002 Australia",121,-37.81654055,144.9884182,3002
The Vegie Bar,Vegetarian,6,$$ - $$$,restaurant,4,"380 Brunswick St, Fitzroy, Yarra, Victoria 3065 Australia",936,-37.7958574,144.9790602,3065
Thirty Eight Chairs,Italian,23,$$ - $$$,restaurant,4.5,"4A Bond St, Yarra, Victoria 3141 Australia",283,-37.8409851,144.9947446,3141
Three Bags Full Cafe,Cafe,2,$$ - $$$,restaurant,4.5,"Corner of Nicholson St and Mollison St,, Abbotsford, Yarra, Victoria 3067 Australia",230,-37.801583,144.996886,3067
Tiamo,Italian,144,$$ - $$$,restaurant,4,"303 Lygon St Carlton, Melbourne, Victoria 3053 Australia",726,-37.7993535,144.9672439,3053
Tim Ho Wan,Chinese,323,$$ - $$$,restaurant,4,"206 Bourke St, Melbourne, Victoria 3000 Australia",361,-37.812915,144.96702,3000
Tipo 00,Italian,20,$$ - $$$,restaurant,4.5,"361 Little Bourke St, Melbourne, Victoria 3000 Australia",823,-37.81366695,144.9620266,3000
Tokui Sushi,Japanese,429,$,restaurant,5,"260 Lonsdale St, Melbourne, Victoria 3000 Australia",50,-37.811427,144.96438,3000
Tokyo Tina,Japanese,6,$$ - $$$,restaurant,4.5,"66A Chapel St, Windsor, Stonnington, Victoria 3181 Australia",202,-37.855453,144.992879,3181
Tonka,Indian,58,$$$$,restaurant,4.5,"20 Duckboard Pl, Melbourne, Victoria 3000 Australia",817,-37.816048,144.971534,3000
Top Paddock,Cafe,4,$$ - $$$,restaurant,4,"658 Church Street, Richmond, Yarra, Victoria Australia",692,-37.8324297,144.9957947,3121
Topolino's,Italian,12,$$ - $$$,restaurant,4,"87 Fitzroy St, St Kilda, Port Phillip, Victoria 3182 Australia",386,-37.860509,144.976646,3182
Transformer Fitzroy,Vegetarian,12,$$ - $$$,restaurant,4.5,"99 Rose Street, Fitzroy, Yarra, Victoria 3065 Australia",285,-37.7959061,144.9793518,3065
Trattoria Emilia,Italian,141,$$ - $$$,restaurant,4.5,"360 Little Collins St Little Collins Street, Melbourne, Victoria 3000 Australia",261,-37.8142853,144.9665341,3000
Triim Food & Drink,Cafe,259,$$ - $$$,restaurant,4,"33 Hardware Lane, Melbourne, Victoria 3000 Australia",224,-37.813842,144.961201,3000
Trunk,Mediterranean,129,$$ - $$$,restaurant,4,"275 Exhibition St, Melbourne, Victoria 3000 Australia",769,-37.809354,144.969037,3000
Tsindos-The Greeks Restaurant,Greek,88,$$ - $$$,restaurant,4,"197 Lonsdale St, Melbourne, Victoria 3000 Australia",718,-37.8112149,144.9665492,3000
Tulum Restaurant,Turkish,281,$$ - $$$,restaurant,4,"217 Carlisle Street, Balaclava Near the Balaclava train station, Melbourne, Victoria 2575 Australia",167,-37.868988,144.993939,2575
Two Birds One Stone,Cafe,101,$$ - $$$,restaurant,4.5,"12 Claremont St, Melbourne, Victoria 3141 Australia",366,-37.8380714,144.9939255,3141
Uncle Collins Street,Vietnamese,291,$$ - $$$,restaurant,4.5,"15 Collins St Level 1, Melbourne, Victoria 3000 Australia",81,-37.8136974,144.9732265,3000
Universal Restaurant,Italian,257,$$ - $$$,restaurant,4,"141 Lygon Street Carlton, Melbourne, Victoria 3053 Australia",363,-37.80384405,144.9660936,3053
University Cafe,Cafe,319,$$ - $$$,restaurant,4,"257 Lygon St Carlton, Melbourne, Victoria 3053 Australia",269,-37.7994505,144.9668913,3053
Vaporetto Bar & Eatery,Italian,2,$$ - $$$,restaurant,4.5,"Rear 681 Glenferrie Rd Enter via Grace St, Hawthorn, Boroondara, Victoria 3122 Australia",261,-37.822814,145.031704,3122
Vertue Coffee Roasters,Cafe,217,$$ - $$$,restaurant,4.5,"8 Raffa Place, Melbourne, Victoria 3053 Australia",114,-37.7976806,144.968392,3053
Vespa Rossa,Cafe,244,$$ - $$$,restaurant,4.5,"30 Block Pl, Melbourne, Victoria 3000 Australia",122,-37.815303,144.96441,3000
Viet Kitchen,Vietnamese,1,$,restaurant,4.5,"110 Hopkins St, Footscray, Maribyrnong, Victoria 3011 Australia",130,-37.799818,144.901677,3011
Vivace,Italian,1,$$ - $$$,restaurant,4.5,"317 Bay St, Brighton, Bayside, Victoria 3186 Australia",408,-37.9054359,145.0030338,3186
Vue De Monde,Australian,33,$$$$,restaurant,4.5,"525 Collins St Rialto Building 55th Floor, Melbourne, Victoria 3000 Australia",2035,-37.818505,144.957279,3000
Waiters Restaurant - Italian Waiters Club,Italian,183,$$ - $$$,restaurant,4,"20 Meyers Pl, Melbourne, Victoria 3000 Australia",282,-37.812088,144.972347,3000
Walkers Doughnuts,American,324,$,restaurant,4.5,"26/2 Elizabeth St, Melbourne, Victoria 3000 Australia",127,-37.8062992,144.959669,3000
Waterfront,Japanese,99,$$$$,restaurant,4,"Southgate Avenue Shop 20/3, Melbourne, Victoria 3006 Australia",1525,-37.820682,144.9652872,3006
White Mojo Speciality Coffee & Roaster,Cafe,318,$$ - $$$,restaurant,4,"115 Hardware St, Melbourne, Victoria 3000 Australia",203,-37.812092,144.960393,3000
White Rabbit,Mediterranean,3,$$ - $$$,restaurant,4,"118 Church St, Brighton, Bayside, Victoria 3186 Australia",246,-37.9156004,144.9955723,3186
Windows Restaurant,Australian,272,$$ - $$$,restaurant,4,"65 Queens Rd, Melbourne, Victoria 3004 Australia",208,-37.84979095,144.9785467,3004
Yassas - The Greek Way,Greek,392,$$ - $$$,restaurant,4,"4-9/3 Southgate Ave Southgate Plaza, Melbourne, Victoria 3006 Australia",399,-37.820228,144.966524,3006
Yeonga Korean BBQ,Korean,344,$$ - $$$,restaurant,4.5,"1-3 Cobden St, Melbourne, Victoria 3051 Australia",76,-37.8041097,144.9574001,3051
Young and Jacksons,Bar,167,$$ - $$$,restaurant,4,"Cnr Swanston & Flinders Sts, Melbourne, Victoria 3000 Australia",366,-37.817759,144.967177,3000
